{"type":"FeatureCollection","features":[{"type":"Feature","geometry":{"type":"MultiLineString","coordinates":[[[106.95327,-6.213309],[106.953008,-6.213369],[106.952833,-6.213472],[106.952731,-6.213132],[106.952703,-6.212843],[106.952716,-6.212701],[106.952547,-6.212523],[106.952713,-6.21243],[106.95322,-6.212225],[106.953256,-6.212014],[106.953005,-6.211694],[106.953224,-6.211535],[106.953453,-6.211174],[106.953424,-6.210861],[106.953165,-6.210771],[106.9529,-6.210891],[106.952801,-6.210865],[106.952411,-6.210209],[106.95227,-6.21025],[106.95204,-6.21034],[106.95099,-6.21092],[106.95109,-6.21112],[106.95115,-6.21127],[106.95118,-6.21142],[106.95126,-6.21158],[106.9514,-6.21173],[106.95146,-6.21182],[106.9519,-6.21267],[106.95211,-6.2132],[106.95266,-6.21528],[106.95278,-6.21594],[106.953,-6.21694],[106.95325,-6.21867],[106.95324,-6.21883],[106.95321,-6.21886],[106.95311,-6.21893],[106.95258,-6.21886],[106.95245,-6.21716],[106.95237,-6.21656],[106.95221,-6.2157],[106.95219,-6.21554],[106.95201,-6.2149],[106.95196,-6.21483],[106.95188,-6.21462],[106.95157,-6.21403],[106.95121,-6.21326],[106.95094,-6.21263],[106.95077,-6.21229],[106.95048,-6.21175],[106.95029,-6.21158],[106.95003,-6.21149],[106.94946,-6.21179],[106.94936,-6.21182],[106.94925,-6.21182],[106.94879,-6.21163],[106.94862,-6.21161],[106.94855,-6.21162],[106.94837,-6.21169],[106.94795,-6.21194],[106.94746,-6.21215],[106.94717,-6.2122],[106.94637,-6.21244],[106.94567,-6.2126],[106.945571,-6.212603],[106.945349,-6.212554],[106.94535,-6.21261],[106.94363,-6.21259],[106.94129,-6.21254],[106.9404,-6.21251],[106.94028,-6.21252],[106.94017,-6.21256],[106.93999,-6.21269],[106.93978,-6.21288],[106.9397,-6.21298],[106.93966,-6.21316],[106.9397,-6.21369],[106.93967,-6.214139],[106.93964,-6.21487],[106.93957,-6.21542],[106.93948,-6.21636],[106.93943,-6.2166],[106.93937,-6.2168],[106.9393,-6.21697],[106.93917,-6.21717],[106.93892,-6.21742],[106.93872,-6.21755],[106.93852,-6.21763],[106.93827,-6.21768],[106.93792,-6.21768],[106.93558,-6.21739],[106.93518,-6.21731],[106.93439,-6.21719],[106.93367,-6.2171],[106.93278,-6.21699],[106.93179,-6.21688],[106.93106,-6.21682],[106.930535,-6.216739],[106.92868,-6.21654],[106.92795,-6.21643],[106.92663,-6.21627],[106.92514,-6.21613],[106.92485,-6.21609],[106.92439,-6.21607],[106.92431,-6.21606],[106.92407,-6.21615],[106.92401,-6.2162],[106.92393,-6.2163],[106.92389,-6.2169],[106.92374,-6.21804],[106.92367,-6.21826],[106.92357,-6.21907],[106.92349,-6.22021],[106.92338,-6.22125],[106.92332,-6.22221],[106.92333,-6.224141],[106.92332,-6.22475],[106.92336,-6.22537],[106.92337,-6.22585],[106.92335,-6.22614],[106.92318,-6.22752],[106.92318,-6.22772],[106.92138,-6.22772],[106.91955,-6.22781],[106.91864,-6.228],[106.91433,-6.22904],[106.91293,-6.22934],[106.91203,-6.2295],[106.91077,-6.22969],[106.90969,-6.22973],[106.90495,-6.22964],[106.90191,-6.22953],[106.90119,-6.22948],[106.90011,-6.22963],[106.89838,-6.22967],[106.8962,-6.22962],[106.89334,-6.22953],[106.892,-6.22946],[106.89078,-6.22936],[106.88997,-6.22937],[106.88969,-6.22933],[106.88873,-6.22913],[106.88711,-6.22892],[106.8868,-6.22887],[106.88515,-6.22843],[106.88295,-6.22772],[106.88264,-6.22765],[106.88239,-6.22767],[106.88227,-6.22767],[106.88218,-6.22763],[106.88208,-6.22757],[106.88197,-6.22747],[106.88139,-6.22709],[106.88062,-6.22663],[106.87977,-6.22615],[106.87937,-6.22595],[106.87777,-6.22494],[106.87719,-6.2247],[106.8768,-6.22465],[106.87446,-6.22486],[106.87343,-6.2249],[106.87322,-6.2249],[106.87296,-6.22486],[106.87206,-6.22467],[106.87164,-6.22463],[106.87134,-6.22463],[106.87085,-6.22468],[106.87074,-6.22473],[106.869596,-6.224834],[106.8673,-6.225],[106.86712,-6.22506],[106.86705,-6.22513],[106.866982,-6.225411],[106.86699,-6.22542],[106.86699,-6.22553],[106.86728,-6.22684],[106.86731,-6.22711],[106.8673,-6.22881],[106.86732,-6.229724]],[[106.953258,-6.213279],[106.952853,-6.213417],[106.952809,-6.213397],[106.952705,-6.213032],[106.952726,-6.212685],[106.952601,-6.212573],[106.952546,-6.212501],[106.952634,-6.212453],[106.953206,-6.212216],[106.953258,-6.212055],[106.953122,-6.211772],[106.953032,-6.211691],[106.95306,-6.211603],[106.953293,-6.211499],[106.953425,-6.21134],[106.953459,-6.211173],[106.953455,-6.211017],[106.953439,-6.210863],[106.95335,-6.210788],[106.953265,-6.210774],[106.95286,-6.210885],[106.952792,-6.210835],[106.952734,-6.210767],[106.952582,-6.210532],[106.952396,-6.210216],[106.952272,-6.210249],[106.95204,-6.21034],[106.95099,-6.21092],[106.95109,-6.21112],[106.95115,-6.21127],[106.95118,-6.21142],[106.95126,-6.21158],[106.9514,-6.21173],[106.95146,-6.21182],[106.9519,-6.21267],[106.95211,-6.2132],[106.95266,-6.21528],[106.95278,-6.21594],[106.953,-6.21694],[106.95325,-6.21867],[106.95324,-6.21883],[106.95321,-6.21886],[106.95311,-6.21893],[106.95258,-6.21886],[106.95245,-6.21716],[106.95237,-6.21656],[106.95221,-6.2157],[106.95219,-6.21554],[106.95201,-6.2149],[106.95196,-6.21483],[106.95188,-6.21462],[106.95157,-6.21403],[106.95121,-6.21326],[106.95094,-6.21263],[106.95077,-6.21229],[106.95048,-6.21175],[106.95029,-6.21158],[106.95003,-6.21149],[106.94946,-6.21179],[106.94936,-6.21182],[106.94925,-6.21182],[106.94879,-6.21163],[106.94862,-6.21161],[106.94855,-6.21162],[106.94837,-6.21169],[106.94795,-6.21194],[106.94746,-6.21215],[106.94717,-6.2122],[106.94637,-6.21244],[106.94567,-6.2126],[106.94532,-6.21262],[106.94344,-6.21256],[106.94276,-6.21258],[106.94208,-6.21254],[106.94192,-6.21252],[106.9415,-6.21255],[106.94028,-6.21253],[106.94016,-6.21258],[106.93998,-6.21272],[106.93978,-6.21291],[106.93973,-6.21302],[106.93971,-6.21316],[106.93969,-6.21361],[106.93969,-6.21443],[106.93966,-6.21519],[106.93963,-6.21546],[106.93948,-6.21644],[106.93938,-6.21684],[106.9392,-6.21715],[106.93897,-6.21741],[106.93872,-6.21756],[106.93852,-6.21763],[106.93826,-6.21769],[106.93792,-6.21768],[106.93556,-6.21742],[106.93477,-6.21727],[106.93278,-6.21698],[106.93054,-6.21674],[106.928684,-6.216531],[106.92668,-6.216266],[106.924533,-6.216038],[106.924402,-6.216038],[106.924155,-6.216091],[106.924036,-6.216151],[106.923973,-6.216231],[106.923927,-6.216305],[106.923874,-6.21681],[106.92377,-6.217977],[106.923668,-6.218671],[106.923482,-6.22068],[106.923395,-6.221465],[106.923352,-6.22245],[106.923349,-6.225144],[106.923338,-6.226405],[106.923174,-6.227551],[106.923149,-6.227642],[106.923079,-6.227695],[106.922866,-6.227686],[106.921624,-6.227707],[106.920499,-6.227762],[106.919363,-6.227852],[106.917568,-6.228259],[106.91618,-6.228592],[106.913687,-6.229227],[106.912254,-6.229497],[106.911093,-6.229675],[106.910315,-6.22977],[106.907223,-6.229707],[106.905474,-6.2297],[106.904789,-6.229709],[106.902932,-6.229644],[106.901176,-6.229535],[106.900605,-6.229633],[106.900423,-6.229672],[106.898761,-6.229691],[106.896601,-6.229663],[106.894549,-6.22958],[106.892959,-6.229547],[106.891029,-6.229357],[106.889948,-6.229393],[106.889604,-6.229353],[106.888629,-6.229118],[106.886417,-6.228809],[106.882845,-6.227718],[106.882389,-6.227675],[106.882235,-6.227649],[106.881537,-6.227202],[106.879301,-6.225945],[106.877748,-6.225027],[106.877167,-6.224666],[106.876815,-6.224637],[106.875775,-6.224733],[106.875046,-6.224814],[106.874032,-6.224908],[106.873254,-6.224908],[106.872171,-6.224701],[106.871589,-6.224673],[106.87064,-6.224728],[106.870058,-6.224795],[106.867242,-6.225009],[106.867126,-6.225051],[106.867018,-6.225159],[106.866979,-6.225261],[106.86696,-6.225345],[106.866957,-6.225381],[106.86698,-6.22539],[106.86697,-6.22553],[106.86699,-6.22567],[106.86707,-6.22593],[106.8672,-6.2265],[106.86725,-6.22711],[106.86728,-6.22767],[106.86729,-6.22881],[106.86732,-6.229961],[106.86739,-6.23179],[106.86721,-6.23181],[106.86714,-6.23041],[106.86715,-6.22832],[106.86713,-6.22757],[106.86714,-6.22715],[106.8671,-6.2268],[106.86695,-6.22601],[106.86683,-6.22561],[106.86651,-6.22497],[106.86628,-6.22439],[106.86607,-6.22372],[106.86545,-6.22164],[106.86539,-6.2214],[106.86528,-6.22111],[106.86481,-6.22012],[106.86435,-6.21908],[106.86417,-6.21854],[106.8641,-6.21815],[106.86389,-6.21652],[106.86385,-6.21641],[106.86379,-6.21631],[106.86357,-6.21605],[106.86259,-6.21517],[106.86224,-6.21484],[106.86194,-6.21449],[106.86187,-6.21439],[106.86144,-6.2136],[106.86167,-6.21348],[106.86178,-6.21346],[106.86195,-6.21352],[106.86234,-6.21369],[106.86288,-6.21385],[106.86484,-6.21474],[106.86614,-6.21532],[106.8664,-6.21574],[106.86653,-6.21598],[106.86674,-6.21632],[106.86698,-6.21674],[106.86705,-6.2169],[106.86733,-6.21767],[106.86813,-6.21993],[106.86818,-6.22012],[106.86821,-6.22028],[106.86821,-6.22054],[106.86818,-6.22131],[106.86817,-6.22197],[106.86813,-6.22197],[106.86812,-6.22276],[106.8681,-6.22306],[106.86806,-6.22327],[106.86759,-6.22428],[106.86768,-6.22438],[106.86785,-6.22449],[106.86798,-6.22452],[106.8686,-6.22457],[106.87012,-6.22459],[106.87071,-6.22456],[106.87091,-6.22459],[106.8713,-6.22454],[106.87159,-6.22454],[106.87198,-6.22456],[106.87219,-6.22462],[106.87299,-6.22478],[106.87351,-6.22483],[106.87523,-6.2247],[106.87574,-6.22468],[106.87666,-6.22456],[106.87696,-6.22456],[106.87714,-6.22459],[106.87741,-6.22467],[106.87854,-6.22525],[106.87944,-6.22576],[106.88076,-6.22648],[106.88178,-6.22714],[106.88231,-6.22745],[106.88251,-6.22754],[106.88295,-6.22765],[106.88402,-6.228],[106.88522,-6.22837],[106.88573,-6.22851],[106.88699,-6.22881],[106.8884,-6.22898],[106.88881,-6.22906],[106.88959,-6.22924],[106.88996,-6.22931],[106.89065,-6.22928],[106.89201,-6.22941],[106.89287,-6.22947],[106.89372,-6.22951],[106.89511,-6.22954],[106.895679,-6.22954],[106.89606,-6.22955],[106.89644,-6.22954],[106.89814,-6.22962],[106.89856,-6.22963],[106.9001,-6.22958],[106.90117,-6.22943],[106.901941,-6.22947],[106.9031,-6.22955],[106.90793,-6.22963],[106.90949,-6.22967],[106.910381,-6.22966],[106.91077,-6.22964],[106.91259,-6.22934],[106.91329,-6.2292],[106.914591,-6.22891],[106.91676,-6.22838],[106.91951,-6.22775],[106.92161,-6.22766],[106.92307,-6.22764],[106.92315,-6.22718],[106.923201,-6.226793],[106.92326,-6.22616],[106.92324,-6.223513],[106.92325,-6.22238],[106.9233,-6.22149],[106.92337,-6.22072],[106.92342,-6.219819],[106.92346,-6.21939],[106.92349,-6.21917],[106.92357,-6.21826],[106.92353,-6.21809],[106.92352,-6.21793],[106.92363,-6.21699],[106.92374,-6.21583],[106.92408,-6.21584],[106.92668,-6.21618],[106.92751,-6.21624],[106.93283,-6.21689],[106.9348,-6.21716],[106.9356,-6.21732],[106.9379,-6.21754],[106.9382,-6.21755],[106.93848,-6.21749],[106.93867,-6.21741],[106.93888,-6.21727],[106.93911,-6.21702],[106.93927,-6.21676],[106.93938,-6.21635],[106.93946,-6.21542],[106.93944,-6.21507],[106.93956,-6.21385],[106.93964,-6.21251],[106.93967,-6.21239],[106.93975,-6.21232],[106.93982,-6.2123],[106.94039,-6.21228],[106.94182,-6.21233],[106.945148,-6.2124],[106.94562,-6.21239],[106.9469,-6.2121],[106.94745,-6.21196],[106.94787,-6.21173],[106.94839,-6.21149],[106.95058,-6.21024],[106.952579,-6.209137],[106.952902,-6.209013],[106.953202,-6.20913],[106.953331,-6.209376],[106.953202,-6.209728],[106.951003,-6.210943],[106.951196,-6.211263],[106.951421,-6.211477],[106.951625,-6.211605],[106.951829,-6.21185],[106.952065,-6.212437],[106.952205,-6.212527],[106.952559,-6.212485],[106.952993,-6.212309],[106.953219,-6.212234],[106.953455,-6.212805],[106.95353,-6.212965],[106.953433,-6.213194],[106.953288,-6.213269]],[[106.867204,-6.229726],[106.86721,-6.229724],[106.86715,-6.22973],[106.86714,-6.22891],[106.86715,-6.22832],[106.86711,-6.22777],[106.86709,-6.22693],[106.86702,-6.22646],[106.86687,-6.22579],[106.86649,-6.22496],[106.86635,-6.2245],[106.86628,-6.22439],[106.86607,-6.22372],[106.86545,-6.22164],[106.86539,-6.2214],[106.86528,-6.22111],[106.86481,-6.22012],[106.86435,-6.21908],[106.86417,-6.21854],[106.8641,-6.21815],[106.86389,-6.21652],[106.86385,-6.21641],[106.86379,-6.21631],[106.86357,-6.21605],[106.86279,-6.21536],[106.86224,-6.21484],[106.86194,-6.21449],[106.86144,-6.21361],[106.86167,-6.21348],[106.86178,-6.21346],[106.86195,-6.21352],[106.86234,-6.21369],[106.86288,-6.21385],[106.86613,-6.21533],[106.866403,-6.215759],[106.86641,-6.21576],[106.86673,-6.21633],[106.86702,-6.21689],[106.8673,-6.21768],[106.8681,-6.22003],[106.86816,-6.22024],[106.86812,-6.22276],[106.8681,-6.22306],[106.86806,-6.22327],[106.86759,-6.22428],[106.86768,-6.22438],[106.86785,-6.22449],[106.86798,-6.22452],[106.8686,-6.22457],[106.869517,-6.224573],[106.870645,-6.224493],[106.87161,-6.224485],[106.872256,-6.224579],[106.87309,-6.224766],[106.873387,-6.224803],[106.875098,-6.224717],[106.876389,-6.224579],[106.876941,-6.224552],[106.877268,-6.224582],[106.877808,-6.224817],[106.880775,-6.226501],[106.882376,-6.227508],[106.883248,-6.227748],[106.884186,-6.228053],[106.885405,-6.228429],[106.886481,-6.228729],[106.888648,-6.229016],[106.889647,-6.22925],[106.889955,-6.229281],[106.890886,-6.229255],[106.892961,-6.229452],[106.894549,-6.229492],[106.89767,-6.229599],[106.899041,-6.229602],[106.900124,-6.229574],[106.901137,-6.22944],[106.902918,-6.229542],[106.903945,-6.229581],[106.90531,-6.22959],[106.907215,-6.229616],[106.909907,-6.229682],[106.910381,-6.22966],[106.911065,-6.229584],[106.912233,-6.229426],[106.91368,-6.229157],[106.916162,-6.228522],[106.91761,-6.228178],[106.919371,-6.227772],[106.920724,-6.227672],[106.921625,-6.227627],[106.923053,-6.227603],[106.923225,-6.226462],[106.923237,-6.225157],[106.92323,-6.222513],[106.923272,-6.221469],[106.923391,-6.220228],[106.923524,-6.218622],[106.923545,-6.217858],[106.923633,-6.216613],[106.923696,-6.215982],[106.923777,-6.215905],[106.923902,-6.215841],[106.92439,-6.215899],[106.92439,-6.21588],[106.92668,-6.21618],[106.92751,-6.21624],[106.93283,-6.21689],[106.9348,-6.21716],[106.9356,-6.21732],[106.9379,-6.21754],[106.9382,-6.21755],[106.93848,-6.21749],[106.93867,-6.21741],[106.93888,-6.21727],[106.93911,-6.21702],[106.93927,-6.21676],[106.93938,-6.21635],[106.93946,-6.21542],[106.93944,-6.21507],[106.93953,-6.21414],[106.93964,-6.21251],[106.93967,-6.21239],[106.93975,-6.21232],[106.93982,-6.2123],[106.94021,-6.21228],[106.94366,-6.21238],[106.94492,-6.2124],[106.94562,-6.21239],[106.9469,-6.2121],[106.94745,-6.21196],[106.94787,-6.21173],[106.94839,-6.21149],[106.95058,-6.21024],[106.95256,-6.209148],[106.952904,-6.20902],[106.953271,-6.209196],[106.953346,-6.209505],[106.953123,-6.209833],[106.951988,-6.210355],[106.951132,-6.210815],[106.951036,-6.21092],[106.951171,-6.211271],[106.951515,-6.211494],[106.951718,-6.211667],[106.952008,-6.212325],[106.952129,-6.212467],[106.952321,-6.212534],[106.952697,-6.212435],[106.953157,-6.21225],[106.95323,-6.212317],[106.953504,-6.212905],[106.953507,-6.213098],[106.953327,-6.213275]]]},"properties":{"id":115617714,"onestop_id":"r-qquh8-11q","feed_onestop_id":"f-transjakarta~id","feed_version_sha1":"16100b641663eb798d4cc48eeb3ac04d856f14a4","route_id":"11Q","route_color":"504F92","route_desc":"Angkutan Umum Integrasi","route_long_name":"Kampung Melayu - Pulo Gebang via BKT","route_short_name":"11Q","route_type":3,"route_url":null,"alerts":[],"route_stops":[{"__typename":"RouteStop","stop":{"__typename":"Stop","id":2012192879,"stop_id":"B00088P","stop_name":"Awab Dalam","geometry":{"type":"Point","coordinates":[106.8696,-6.224877]}}},{"__typename":"RouteStop","stop":{"__typename":"Stop","id":2012192890,"stop_id":"B00100P","stop_name":"Baladewa Residence","geometry":{"type":"Point","coordinates":[106.91038,-6.229648]}}},{"__typename":"RouteStop","stop":{"__typename":"Stop","id":2012192970,"stop_id":"B00138P","stop_name":"Bidara Cina 1","geometry":{"type":"Point","coordinates":[106.867336,-6.22996]}}},{"__typename":"RouteStop","stop":{"__typename":"Stop","id":2012192971,"stop_id":"B00195P","stop_name":"Buaran Plaza","geometry":{"type":"Point","coordinates":[106.9235,-6.217983]}}},{"__typename":"RouteStop","stop":{"__typename":"Stop","id":2012192974,"stop_id":"B00198P","stop_name":"Budhaya Santo Agustinus","geometry":{"type":"Point","coordinates":[106.92346,-6.220866]}}},{"__typename":"RouteStop","stop":{"__typename":"Stop","id":2012193023,"stop_id":"B00263P","stop_name":"Cipinang Indah","geometry":{"type":"Point","coordinates":[106.89116,-6.22943]}}},{"__typename":"RouteStop","stop":{"__typename":"Stop","id":2012193063,"stop_id":"B00306P","stop_name":"Dinas Kebersihan Duren Sawit","geometry":{"type":"Point","coordinates":[106.92338,-6.219815]}}},{"__typename":"RouteStop","stop":{"__typename":"Stop","id":2012193114,"stop_id":"B00368P","stop_name":"Flyover Radin Inten 1","geometry":{"type":"Point","coordinates":[106.92439,-6.216112]}}},{"__typename":"RouteStop","stop":{"__typename":"Stop","id":2012193117,"stop_id":"B00369P","stop_name":"Flyover Radin Inten 2","geometry":{"type":"Point","coordinates":[106.92408,-6.215843]}}},{"__typename":"RouteStop","stop":{"__typename":"Stop","id":2012193336,"stop_id":"B00603P","stop_name":"Gedung Senam","geometry":{"type":"Point","coordinates":[106.92339,-6.224141]}}},{"__typename":"RouteStop","stop":{"__typename":"Stop","id":2012193451,"stop_id":"B00767P","stop_name":"Hero Basuki Rahmat","geometry":{"type":"Point","coordinates":[106.88296,-6.22764]}}},{"__typename":"RouteStop","stop":{"__typename":"Stop","id":2012193736,"stop_id":"B01096P","stop_name":"Jln. H. Aman","geometry":{"type":"Point","coordinates":[106.92316,-6.226789]}}},{"__typename":"RouteStop","stop":{"__typename":"Stop","id":2012193986,"stop_id":"B01380P","stop_name":"Jln. Melati Bhakti","geometry":{"type":"Point","coordinates":[106.9015,-6.229557]}}},{"__typename":"RouteStop","stop":{"__typename":"Stop","id":2012193998,"stop_id":"B01392P","stop_name":"Jln. Mesjid Abidin","geometry":{"type":"Point","coordinates":[106.90194,-6.229484]}}},{"__typename":"RouteStop","stop":{"__typename":"Stop","id":2012194157,"stop_id":"B01578P","stop_name":"Jln. Serdang","geometry":{"type":"Point","coordinates":[106.91459,-6.228906]}}},{"__typename":"RouteStop","stop":{"__typename":"Stop","id":2012194197,"stop_id":"B01622P","stop_name":"Jln. Swadaya Raya","geometry":{"type":"Point","coordinates":[106.917435,-6.228145]}}},{"__typename":"RouteStop","stop":{"__typename":"Stop","id":2012194305,"stop_id":"B01731P","stop_name":"Jatinegara RS Premier 1","geometry":{"type":"Point","coordinates":[106.86818,-6.221992]}}},{"__typename":"RouteStop","stop":{"__typename":"Stop","id":2012194544,"stop_id":"B02015P","stop_name":"Komplek Abadi 1","geometry":{"type":"Point","coordinates":[106.90793,-6.229617]}}},{"__typename":"RouteStop","stop":{"__typename":"Stop","id":2012194545,"stop_id":"B02016P","stop_name":"Komplek Abadi 2","geometry":{"type":"Point","coordinates":[106.90813,-6.229722]}}},{"__typename":"RouteStop","stop":{"__typename":"Stop","id":2012194593,"stop_id":"B02070P","stop_name":"Komplek Wijaya Kusuma 1","geometry":{"type":"Point","coordinates":[106.90531,-6.229588]}}},{"__typename":"RouteStop","stop":{"__typename":"Stop","id":2012194594,"stop_id":"B02071P","stop_name":"Komplek Wijaya Kusuma 2","geometry":{"type":"Point","coordinates":[106.90495,-6.229694]}}},{"__typename":"RouteStop","stop":{"__typename":"Stop","id":2012194691,"stop_id":"B02186P","stop_name":"Mall Basura 1","geometry":{"type":"Point","coordinates":[106.87856,-6.225218]}}},{"__typename":"RouteStop","stop":{"__typename":"Stop","id":2012194692,"stop_id":"B02187P","stop_name":"Mall Basura 2","geometry":{"type":"Point","coordinates":[106.87763,-6.225004]}}},{"__typename":"RouteStop","stop":{"__typename":"Stop","id":2012194797,"stop_id":"B02307P","stop_name":"Masjid Jami Al Barkah 1","geometry":{"type":"Point","coordinates":[106.91212,-6.229411]}}},{"__typename":"RouteStop","stop":{"__typename":"Stop","id":2012194798,"stop_id":"B02308P","stop_name":"Masjid Jami Al Barkah 2","geometry":{"type":"Point","coordinates":[106.91228,-6.22955]}}},{"__typename":"RouteStop","stop":{"__typename":"Stop","id":2012194803,"stop_id":"B02313P","stop_name":"Masjid Jami Al Inayah","geometry":{"type":"Point","coordinates":[106.86945,-6.224554]}}},{"__typename":"RouteStop","stop":{"__typename":"Stop","id":2012194826,"stop_id":"B02334P","stop_name":"Masjid Jami At Taqwa 1","geometry":{"type":"Point","coordinates":[106.89568,-6.229509]}}},{"__typename":"RouteStop","stop":{"__typename":"Stop","id":2012194827,"stop_id":"B02335P","stop_name":"Masjid Jami At Taqwa 2","geometry":{"type":"Point","coordinates":[106.8962,-6.229704]}}},{"__typename":"RouteStop","stop":{"__typename":"Stop","id":2012194840,"stop_id":"B02351P","stop_name":"Masjid Jami Nurul Ain 1","geometry":{"type":"Point","coordinates":[106.91976,-6.227717]}}},{"__typename":"RouteStop","stop":{"__typename":"Stop","id":2012194841,"stop_id":"B02352P","stop_name":"Masjid Jami Nurul Ain 2","geometry":{"type":"Point","coordinates":[106.91942,-6.227874]}}},{"__typename":"RouteStop","stop":{"__typename":"Stop","id":2012194987,"stop_id":"B02535P","stop_name":"Nusantara","geometry":{"type":"Point","coordinates":[106.88136,-6.227142]}}},{"__typename":"RouteStop","stop":{"__typename":"Stop","id":2012195056,"stop_id":"B02615P","stop_name":"Ps. Inpres Cipinang Besar","geometry":{"type":"Point","coordinates":[106.88078,-6.22645]}}},{"__typename":"RouteStop","stop":{"__typename":"Stop","id":2012195236,"stop_id":"B02818P","stop_name":"Perumnas Klender 2","geometry":{"type":"Point","coordinates":[106.9308,-6.216652]}}},{"__typename":"RouteStop","stop":{"__typename":"Stop","id":2012195491,"stop_id":"B03133P","stop_name":"RS Duren Sawit","geometry":{"type":"Point","coordinates":[106.90969,-6.229777]}}},{"__typename":"RouteStop","stop":{"__typename":"Stop","id":2012195610,"stop_id":"B03280P","stop_name":"Rusun Klender","geometry":{"type":"Point","coordinates":[106.92868,-6.216567]}}},{"__typename":"RouteStop","stop":{"__typename":"Stop","id":2012196361,"stop_id":"B04146P","stop_name":"Sbr. Ps. Inpres Cipinang Besar","geometry":{"type":"Point","coordinates":[106.88059,-6.226687]}}},{"__typename":"RouteStop","stop":{"__typename":"Stop","id":2012196686,"stop_id":"B04518P","stop_name":"Sbr. Swadaya Raya","geometry":{"type":"Point","coordinates":[106.91633,-6.228578]}}},{"__typename":"RouteStop","stop":{"__typename":"Stop","id":2012196776,"stop_id":"B04623P","stop_name":"Sekolah Cahaya Sakti Otista I","geometry":{"type":"Point","coordinates":[106.86708,-6.225391]}}},{"__typename":"RouteStop","stop":{"__typename":"Stop","id":2012197153,"stop_id":"B05063P","stop_name":"Simpang Perintis 1","geometry":{"type":"Point","coordinates":[106.88882,-6.229048]}}},{"__typename":"RouteStop","stop":{"__typename":"Stop","id":2012197327,"stop_id":"B05256P","stop_name":"SMAN 100","geometry":{"type":"Point","coordinates":[106.88494,-6.228401]}}},{"__typename":"RouteStop","stop":{"__typename":"Stop","id":2012197381,"stop_id":"B05318P","stop_name":"SMKN 48","geometry":{"type":"Point","coordinates":[106.92361,-6.219401]}}},{"__typename":"RouteStop","stop":{"__typename":"Stop","id":2012197411,"stop_id":"B05350P","stop_name":"SMPN 14","geometry":{"type":"Point","coordinates":[106.86485,-6.214718]}}},{"__typename":"RouteStop","stop":{"__typename":"Stop","id":2012197597,"stop_id":"B05581P","stop_name":"Taman Buaran Indah","geometry":{"type":"Point","coordinates":[106.92356,-6.216979]}}},{"__typename":"RouteStop","stop":{"__typename":"Stop","id":2012197663,"stop_id":"B05660P","stop_name":"Taman Ut Aheme","geometry":{"type":"Point","coordinates":[106.92256,-6.227704]}}},{"__typename":"RouteStop","stop":{"__typename":"Stop","id":2012197851,"stop_id":"B05885P","stop_name":"Wisma Atlet Radin Inten","geometry":{"type":"Point","coordinates":[106.92322,-6.223513]}}},{"__typename":"RouteStop","stop":{"__typename":"Stop","id":2012198763,"stop_id":"B06652P","stop_name":"Penggilingan 1","geometry":{"type":"Point","coordinates":[106.93945,-6.214459]}}},{"__typename":"RouteStop","stop":{"__typename":"Stop","id":2012198764,"stop_id":"B06653P","stop_name":"Penggilingan 2","geometry":{"type":"Point","coordinates":[106.93973,-6.214423]}}},{"__typename":"RouteStop","stop":{"__typename":"Stop","id":2012198765,"stop_id":"B06654P","stop_name":"Walikota Jakarta Timur 1","geometry":{"type":"Point","coordinates":[106.94515,-6.212327]}}},{"__typename":"RouteStop","stop":{"__typename":"Stop","id":2012198766,"stop_id":"B06655P","stop_name":"Walikota Jakarta Timur 2","geometry":{"type":"Point","coordinates":[106.94472,-6.212722]}}},{"__typename":"RouteStop","stop":{"__typename":"Stop","id":2012198907,"stop_id":"TEMP501","stop_name":"Term. Kampung Melayu 4","geometry":{"type":"Point","coordinates":[106.86642,-6.224715]}}},{"__typename":"RouteStop","stop":{"__typename":"Stop","id":2012198974,"stop_id":"B04648P","stop_name":"Sekolah PGRI Penggilingan","geometry":{"type":"Point","coordinates":[106.933775,-6.216995]}}},{"__typename":"RouteStop","stop":{"__typename":"Stop","id":2012199345,"stop_id":"G00206","stop_name":"Bali Mester","geometry":{"type":"Point","coordinates":[106.866369,-6.21578]}}},{"__typename":"RouteStop","stop":{"__typename":"Stop","id":2012199424,"stop_id":"B05064P","stop_name":"Simpang Perintis 2","geometry":{"type":"Point","coordinates":[106.88833,-6.229105]}}},{"__typename":"RouteStop","stop":{"__typename":"Stop","id":2012199455,"stop_id":"B00262P","stop_name":"Cipinang BKT","geometry":{"type":"Point","coordinates":[106.89288,-6.229448]}}},{"__typename":"RouteStop","stop":{"__typename":"Stop","id":2012199473,"stop_id":"G00352","stop_name":"Bidara Cina","geometry":{"type":"Point","coordinates":[106.867262,-6.229726]}}},{"__typename":"RouteStop","stop":{"__typename":"Stop","id":2012199474,"stop_id":"G00353","stop_name":"Bidara Cina","geometry":{"type":"Point","coordinates":[106.867204,-6.229726]}}},{"__typename":"RouteStop","stop":{"__typename":"Stop","id":2012199475,"stop_id":"G00355","stop_name":"Jatinegara","geometry":{"type":"Point","coordinates":[106.868087,-6.221451]}}},{"__typename":"RouteStop","stop":{"__typename":"Stop","id":2012199598,"stop_id":"B01255P","stop_name":"Jln. Kel. Raya","geometry":{"type":"Point","coordinates":[106.91435,-6.229105]}}},{"__typename":"RouteStop","stop":{"__typename":"Stop","id":2012199637,"stop_id":"G00513","stop_name":"Pulo Gebang","geometry":{"type":"Point","coordinates":[106.95327,-6.213309]}}},{"__typename":"RouteStop","stop":{"__typename":"Stop","id":2012199639,"stop_id":"G00515","stop_name":"Walikota Jakarta Timur","geometry":{"type":"Point","coordinates":[106.94537,-6.212499]}}},{"__typename":"RouteStop","stop":{"__typename":"Stop","id":2012199640,"stop_id":"G00517","stop_name":"Walikota Jakarta Timur","geometry":{"type":"Point","coordinates":[106.945349,-6.212554]}}},{"__typename":"RouteStop","stop":{"__typename":"Stop","id":2012199641,"stop_id":"G00518","stop_name":"Penggilingan","geometry":{"type":"Point","coordinates":[106.939575,-6.214133]}}},{"__typename":"RouteStop","stop":{"__typename":"Stop","id":2012199642,"stop_id":"G00519","stop_name":"Penggilingan","geometry":{"type":"Point","coordinates":[106.939655,-6.214137]}}},{"__typename":"RouteStop","stop":{"__typename":"Stop","id":2012199643,"stop_id":"G00520","stop_name":"Flyover Pondok Kopi","geometry":{"type":"Point","coordinates":[106.930552,-6.216653]}}},{"__typename":"RouteStop","stop":{"__typename":"Stop","id":2012199644,"stop_id":"G00521","stop_name":"Flyover Pondok Kopi","geometry":{"type":"Point","coordinates":[106.93054,-6.216689]}}},{"__typename":"RouteStop","stop":{"__typename":"Stop","id":2012200081,"stop_id":"B07357P","stop_name":"Perumnas Klender 1","geometry":{"type":"Point","coordinates":[106.930538,-6.216779]}}}],"agency":{"__typename":"Agency","id":2925632,"agency_id":"Tije","agency_name":"Transjakarta","onestop_id":"o-qqgu-pttransportasijakarta"},"headways":[{"__typename":"RouteHeadway","dow_category":1,"service_date":"2004-01-15","direction_id":0,"headway_secs":null,"departures":["05:00:10","05:00:10","07:29:59"]},{"__typename":"RouteHeadway","dow_category":6,"service_date":"2004-01-17","direction_id":0,"headway_secs":null,"departures":["05:00:10","07:29:59"]},{"__typename":"RouteHeadway","dow_category":7,"service_date":"2004-01-18","direction_id":0,"headway_secs":null,"departures":["05:00:10","07:29:59"]},{"__typename":"RouteHeadway","dow_category":1,"service_date":"2004-01-15","direction_id":1,"headway_secs":null,"departures":["05:41:13"]},{"__typename":"RouteHeadway","dow_category":6,"service_date":"2004-01-17","direction_id":1,"headway_secs":null,"departures":["05:41:13"]},{"__typename":"RouteHeadway","dow_category":7,"service_date":"2004-01-18","direction_id":1,"headway_secs":null,"departures":["05:41:13"]}],"feed_version":{"__typename":"FeedVersion","id":634110,"fetched_at":"2026-01-31T01:31:25.328392Z"}},"id":115617714}]}