{"type":"FeatureCollection","features":[{"type":"Feature","geometry":{"type":"Point","coordinates":[106.8696,-6.224877]},"properties":{"id":2012192879,"stop_id":"B00088P","stop_name":"Awab Dalam"},"id":2012192879},{"type":"Feature","geometry":{"type":"Point","coordinates":[106.91038,-6.229648]},"properties":{"id":2012192890,"stop_id":"B00100P","stop_name":"Baladewa Residence"},"id":2012192890},{"type":"Feature","geometry":{"type":"Point","coordinates":[106.867336,-6.22996]},"properties":{"id":2012192970,"stop_id":"B00138P","stop_name":"Bidara Cina 1"},"id":2012192970},{"type":"Feature","geometry":{"type":"Point","coordinates":[106.9235,-6.217983]},"properties":{"id":2012192971,"stop_id":"B00195P","stop_name":"Buaran Plaza"},"id":2012192971},{"type":"Feature","geometry":{"type":"Point","coordinates":[106.92346,-6.220866]},"properties":{"id":2012192974,"stop_id":"B00198P","stop_name":"Budhaya Santo Agustinus"},"id":2012192974},{"type":"Feature","geometry":{"type":"Point","coordinates":[106.89116,-6.22943]},"properties":{"id":2012193023,"stop_id":"B00263P","stop_name":"Cipinang Indah"},"id":2012193023},{"type":"Feature","geometry":{"type":"Point","coordinates":[106.92338,-6.219815]},"properties":{"id":2012193063,"stop_id":"B00306P","stop_name":"Dinas Kebersihan Duren Sawit"},"id":2012193063},{"type":"Feature","geometry":{"type":"Point","coordinates":[106.92439,-6.216112]},"properties":{"id":2012193114,"stop_id":"B00368P","stop_name":"Flyover Radin Inten 1"},"id":2012193114},{"type":"Feature","geometry":{"type":"Point","coordinates":[106.92408,-6.215843]},"properties":{"id":2012193117,"stop_id":"B00369P","stop_name":"Flyover Radin Inten 2"},"id":2012193117},{"type":"Feature","geometry":{"type":"Point","coordinates":[106.92339,-6.224141]},"properties":{"id":2012193336,"stop_id":"B00603P","stop_name":"Gedung Senam"},"id":2012193336},{"type":"Feature","geometry":{"type":"Point","coordinates":[106.88296,-6.22764]},"properties":{"id":2012193451,"stop_id":"B00767P","stop_name":"Hero Basuki Rahmat"},"id":2012193451},{"type":"Feature","geometry":{"type":"Point","coordinates":[106.92316,-6.226789]},"properties":{"id":2012193736,"stop_id":"B01096P","stop_name":"Jln. H. Aman"},"id":2012193736},{"type":"Feature","geometry":{"type":"Point","coordinates":[106.9015,-6.229557]},"properties":{"id":2012193986,"stop_id":"B01380P","stop_name":"Jln. Melati Bhakti"},"id":2012193986},{"type":"Feature","geometry":{"type":"Point","coordinates":[106.90194,-6.229484]},"properties":{"id":2012193998,"stop_id":"B01392P","stop_name":"Jln. Mesjid Abidin"},"id":2012193998},{"type":"Feature","geometry":{"type":"Point","coordinates":[106.91459,-6.228906]},"properties":{"id":2012194157,"stop_id":"B01578P","stop_name":"Jln. Serdang"},"id":2012194157},{"type":"Feature","geometry":{"type":"Point","coordinates":[106.917435,-6.228145]},"properties":{"id":2012194197,"stop_id":"B01622P","stop_name":"Jln. Swadaya Raya"},"id":2012194197},{"type":"Feature","geometry":{"type":"Point","coordinates":[106.86818,-6.221992]},"properties":{"id":2012194305,"stop_id":"B01731P","stop_name":"Jatinegara RS Premier 1"},"id":2012194305},{"type":"Feature","geometry":{"type":"Point","coordinates":[106.90793,-6.229617]},"properties":{"id":2012194544,"stop_id":"B02015P","stop_name":"Komplek Abadi 1"},"id":2012194544},{"type":"Feature","geometry":{"type":"Point","coordinates":[106.90813,-6.229722]},"properties":{"id":2012194545,"stop_id":"B02016P","stop_name":"Komplek Abadi 2"},"id":2012194545},{"type":"Feature","geometry":{"type":"Point","coordinates":[106.90531,-6.229588]},"properties":{"id":2012194593,"stop_id":"B02070P","stop_name":"Komplek Wijaya Kusuma 1"},"id":2012194593},{"type":"Feature","geometry":{"type":"Point","coordinates":[106.90495,-6.229694]},"properties":{"id":2012194594,"stop_id":"B02071P","stop_name":"Komplek Wijaya Kusuma 2"},"id":2012194594},{"type":"Feature","geometry":{"type":"Point","coordinates":[106.87856,-6.225218]},"properties":{"id":2012194691,"stop_id":"B02186P","stop_name":"Mall Basura 1"},"id":2012194691},{"type":"Feature","geometry":{"type":"Point","coordinates":[106.87763,-6.225004]},"properties":{"id":2012194692,"stop_id":"B02187P","stop_name":"Mall Basura 2"},"id":2012194692},{"type":"Feature","geometry":{"type":"Point","coordinates":[106.91212,-6.229411]},"properties":{"id":2012194797,"stop_id":"B02307P","stop_name":"Masjid Jami Al Barkah 1"},"id":2012194797},{"type":"Feature","geometry":{"type":"Point","coordinates":[106.91228,-6.22955]},"properties":{"id":2012194798,"stop_id":"B02308P","stop_name":"Masjid Jami Al Barkah 2"},"id":2012194798},{"type":"Feature","geometry":{"type":"Point","coordinates":[106.86945,-6.224554]},"properties":{"id":2012194803,"stop_id":"B02313P","stop_name":"Masjid Jami Al Inayah"},"id":2012194803},{"type":"Feature","geometry":{"type":"Point","coordinates":[106.89568,-6.229509]},"properties":{"id":2012194826,"stop_id":"B02334P","stop_name":"Masjid Jami At Taqwa 1"},"id":2012194826},{"type":"Feature","geometry":{"type":"Point","coordinates":[106.8962,-6.229704]},"properties":{"id":2012194827,"stop_id":"B02335P","stop_name":"Masjid Jami At Taqwa 2"},"id":2012194827},{"type":"Feature","geometry":{"type":"Point","coordinates":[106.91976,-6.227717]},"properties":{"id":2012194840,"stop_id":"B02351P","stop_name":"Masjid Jami Nurul Ain 1"},"id":2012194840},{"type":"Feature","geometry":{"type":"Point","coordinates":[106.91942,-6.227874]},"properties":{"id":2012194841,"stop_id":"B02352P","stop_name":"Masjid Jami Nurul Ain 2"},"id":2012194841},{"type":"Feature","geometry":{"type":"Point","coordinates":[106.88136,-6.227142]},"properties":{"id":2012194987,"stop_id":"B02535P","stop_name":"Nusantara"},"id":2012194987},{"type":"Feature","geometry":{"type":"Point","coordinates":[106.88078,-6.22645]},"properties":{"id":2012195056,"stop_id":"B02615P","stop_name":"Ps. Inpres Cipinang Besar"},"id":2012195056},{"type":"Feature","geometry":{"type":"Point","coordinates":[106.9308,-6.216652]},"properties":{"id":2012195236,"stop_id":"B02818P","stop_name":"Perumnas Klender 2"},"id":2012195236},{"type":"Feature","geometry":{"type":"Point","coordinates":[106.90969,-6.229777]},"properties":{"id":2012195491,"stop_id":"B03133P","stop_name":"RS Duren Sawit"},"id":2012195491},{"type":"Feature","geometry":{"type":"Point","coordinates":[106.92868,-6.216567]},"properties":{"id":2012195610,"stop_id":"B03280P","stop_name":"Rusun Klender"},"id":2012195610},{"type":"Feature","geometry":{"type":"Point","coordinates":[106.88059,-6.226687]},"properties":{"id":2012196361,"stop_id":"B04146P","stop_name":"Sbr. Ps. Inpres Cipinang Besar"},"id":2012196361},{"type":"Feature","geometry":{"type":"Point","coordinates":[106.91633,-6.228578]},"properties":{"id":2012196686,"stop_id":"B04518P","stop_name":"Sbr. Swadaya Raya"},"id":2012196686},{"type":"Feature","geometry":{"type":"Point","coordinates":[106.86708,-6.225391]},"properties":{"id":2012196776,"stop_id":"B04623P","stop_name":"Sekolah Cahaya Sakti Otista I"},"id":2012196776},{"type":"Feature","geometry":{"type":"Point","coordinates":[106.88882,-6.229048]},"properties":{"id":2012197153,"stop_id":"B05063P","stop_name":"Simpang Perintis 1"},"id":2012197153},{"type":"Feature","geometry":{"type":"Point","coordinates":[106.88494,-6.228401]},"properties":{"id":2012197327,"stop_id":"B05256P","stop_name":"SMAN 100"},"id":2012197327},{"type":"Feature","geometry":{"type":"Point","coordinates":[106.92361,-6.219401]},"properties":{"id":2012197381,"stop_id":"B05318P","stop_name":"SMKN 48"},"id":2012197381},{"type":"Feature","geometry":{"type":"Point","coordinates":[106.86485,-6.214718]},"properties":{"id":2012197411,"stop_id":"B05350P","stop_name":"SMPN 14"},"id":2012197411},{"type":"Feature","geometry":{"type":"Point","coordinates":[106.92356,-6.216979]},"properties":{"id":2012197597,"stop_id":"B05581P","stop_name":"Taman Buaran Indah"},"id":2012197597},{"type":"Feature","geometry":{"type":"Point","coordinates":[106.92256,-6.227704]},"properties":{"id":2012197663,"stop_id":"B05660P","stop_name":"Taman Ut Aheme"},"id":2012197663},{"type":"Feature","geometry":{"type":"Point","coordinates":[106.92322,-6.223513]},"properties":{"id":2012197851,"stop_id":"B05885P","stop_name":"Wisma Atlet Radin Inten"},"id":2012197851},{"type":"Feature","geometry":{"type":"Point","coordinates":[106.93945,-6.214459]},"properties":{"id":2012198763,"stop_id":"B06652P","stop_name":"Penggilingan 1"},"id":2012198763},{"type":"Feature","geometry":{"type":"Point","coordinates":[106.93973,-6.214423]},"properties":{"id":2012198764,"stop_id":"B06653P","stop_name":"Penggilingan 2"},"id":2012198764},{"type":"Feature","geometry":{"type":"Point","coordinates":[106.94515,-6.212327]},"properties":{"id":2012198765,"stop_id":"B06654P","stop_name":"Walikota Jakarta Timur 1"},"id":2012198765},{"type":"Feature","geometry":{"type":"Point","coordinates":[106.94472,-6.212722]},"properties":{"id":2012198766,"stop_id":"B06655P","stop_name":"Walikota Jakarta Timur 2"},"id":2012198766},{"type":"Feature","geometry":{"type":"Point","coordinates":[106.86642,-6.224715]},"properties":{"id":2012198907,"stop_id":"TEMP501","stop_name":"Term. Kampung Melayu 4"},"id":2012198907},{"type":"Feature","geometry":{"type":"Point","coordinates":[106.933775,-6.216995]},"properties":{"id":2012198974,"stop_id":"B04648P","stop_name":"Sekolah PGRI Penggilingan"},"id":2012198974},{"type":"Feature","geometry":{"type":"Point","coordinates":[106.866369,-6.21578]},"properties":{"id":2012199345,"stop_id":"G00206","stop_name":"Bali Mester"},"id":2012199345},{"type":"Feature","geometry":{"type":"Point","coordinates":[106.88833,-6.229105]},"properties":{"id":2012199424,"stop_id":"B05064P","stop_name":"Simpang Perintis 2"},"id":2012199424},{"type":"Feature","geometry":{"type":"Point","coordinates":[106.89288,-6.229448]},"properties":{"id":2012199455,"stop_id":"B00262P","stop_name":"Cipinang BKT"},"id":2012199455},{"type":"Feature","geometry":{"type":"Point","coordinates":[106.867262,-6.229726]},"properties":{"id":2012199473,"stop_id":"G00352","stop_name":"Bidara Cina"},"id":2012199473},{"type":"Feature","geometry":{"type":"Point","coordinates":[106.867204,-6.229726]},"properties":{"id":2012199474,"stop_id":"G00353","stop_name":"Bidara Cina"},"id":2012199474},{"type":"Feature","geometry":{"type":"Point","coordinates":[106.868087,-6.221451]},"properties":{"id":2012199475,"stop_id":"G00355","stop_name":"Jatinegara"},"id":2012199475},{"type":"Feature","geometry":{"type":"Point","coordinates":[106.91435,-6.229105]},"properties":{"id":2012199598,"stop_id":"B01255P","stop_name":"Jln. Kel. Raya"},"id":2012199598},{"type":"Feature","geometry":{"type":"Point","coordinates":[106.95327,-6.213309]},"properties":{"id":2012199637,"stop_id":"G00513","stop_name":"Pulo Gebang"},"id":2012199637},{"type":"Feature","geometry":{"type":"Point","coordinates":[106.94537,-6.212499]},"properties":{"id":2012199639,"stop_id":"G00515","stop_name":"Walikota Jakarta Timur"},"id":2012199639},{"type":"Feature","geometry":{"type":"Point","coordinates":[106.945349,-6.212554]},"properties":{"id":2012199640,"stop_id":"G00517","stop_name":"Walikota Jakarta Timur"},"id":2012199640},{"type":"Feature","geometry":{"type":"Point","coordinates":[106.939575,-6.214133]},"properties":{"id":2012199641,"stop_id":"G00518","stop_name":"Penggilingan"},"id":2012199641},{"type":"Feature","geometry":{"type":"Point","coordinates":[106.939655,-6.214137]},"properties":{"id":2012199642,"stop_id":"G00519","stop_name":"Penggilingan"},"id":2012199642},{"type":"Feature","geometry":{"type":"Point","coordinates":[106.930552,-6.216653]},"properties":{"id":2012199643,"stop_id":"G00520","stop_name":"Flyover Pondok Kopi"},"id":2012199643},{"type":"Feature","geometry":{"type":"Point","coordinates":[106.93054,-6.216689]},"properties":{"id":2012199644,"stop_id":"G00521","stop_name":"Flyover Pondok Kopi"},"id":2012199644},{"type":"Feature","geometry":{"type":"Point","coordinates":[106.930538,-6.216779]},"properties":{"id":2012200081,"stop_id":"B07357P","stop_name":"Perumnas Klender 1"},"id":2012200081}]}