{"type":"FeatureCollection","features":[{"type":"Feature","geometry":{"type":"MultiLineString","coordinates":[[[106.94514,-6.21239],[106.94562,-6.21239],[106.94745,-6.21196],[106.94787,-6.21173],[106.94798,-6.21163],[106.94858,-6.21122],[106.9487,-6.21111],[106.94947,-6.21027],[106.94964,-6.21025],[106.94974,-6.21026],[106.94986,-6.2103],[106.9502,-6.21096],[106.95024,-6.21108],[106.95024,-6.2112],[106.95018,-6.21135],[106.95014,-6.21141],[106.95003,-6.21149],[106.94946,-6.21179],[106.94936,-6.21182],[106.94925,-6.21182],[106.94879,-6.21163],[106.94862,-6.21161],[106.94855,-6.21162],[106.94837,-6.21169],[106.94795,-6.21194],[106.94746,-6.21215],[106.94713,-6.21221],[106.94637,-6.21244],[106.94567,-6.2126],[106.94532,-6.21262],[106.94344,-6.21256],[106.94276,-6.21258],[106.94208,-6.21254],[106.94192,-6.21252],[106.9415,-6.21255],[106.94028,-6.21253],[106.94016,-6.21258],[106.93998,-6.21272],[106.93978,-6.21291],[106.93973,-6.21302],[106.93971,-6.21316],[106.93969,-6.214422],[106.93965,-6.21443],[106.93963,-6.21488],[106.93956,-6.21542],[106.93947,-6.21637],[106.93943,-6.21661],[106.93937,-6.21681],[106.93929,-6.21698],[106.93916,-6.21717],[106.93891,-6.21742],[106.93872,-6.21756],[106.93852,-6.21763],[106.93826,-6.21769],[106.93792,-6.21768],[106.93557,-6.2174],[106.93474,-6.21725],[106.93401,-6.21715],[106.93179,-6.21688],[106.93106,-6.21682],[106.930542,-6.21675],[106.92868,-6.21654],[106.927451,-6.21637],[106.92663,-6.21627],[106.92514,-6.21613],[106.92485,-6.21609],[106.924392,-6.216071],[106.92431,-6.21606],[106.92407,-6.21615],[106.92401,-6.2162],[106.92393,-6.2163],[106.92389,-6.2169],[106.92374,-6.21804],[106.92367,-6.21826],[106.92363,-6.21858],[106.9237,-6.21859],[106.923614,-6.219402],[106.92349,-6.22021],[106.92338,-6.22125],[106.92331,-6.22246],[106.92333,-6.22323],[106.92333,-6.22415],[106.92332,-6.22475],[106.92336,-6.22537],[106.92337,-6.22585],[106.92335,-6.22614],[106.92318,-6.22752],[106.92318,-6.22772],[106.92138,-6.22772],[106.91955,-6.22781],[106.91864,-6.228],[106.91433,-6.22904],[106.91293,-6.22934],[106.91203,-6.2295],[106.91077,-6.22969],[106.91028,-6.22972],[106.91002,-6.22987],[106.90999,-6.23061],[106.9097,-6.23061],[106.90958,-6.23083],[106.90982,-6.2309],[106.91003,-6.23102],[106.91012,-6.23111],[106.91015,-6.2314],[106.91014,-6.2323],[106.91018,-6.2323],[106.91014,-6.2323],[106.91006,-6.23711],[106.90996,-6.24053],[106.90998,-6.24057],[106.91003,-6.24061],[106.91095,-6.24063],[106.91089,-6.24157],[106.91085,-6.24157]],[[106.91085,-6.24157],[106.91089,-6.24157],[106.91094,-6.24073],[106.91003,-6.24071],[106.90996,-6.24069],[106.9099,-6.24064],[106.90986,-6.24052],[106.9099,-6.238716],[106.90993,-6.23799],[106.90993,-6.23711],[106.91002,-6.23357],[106.91012,-6.23356],[106.91013,-6.23339],[106.91006,-6.23339],[106.91013,-6.23339],[106.91015,-6.2314],[106.91012,-6.23111],[106.91003,-6.23102],[106.90982,-6.2309],[106.90958,-6.23083],[106.9097,-6.23061],[106.90999,-6.23061],[106.91003,-6.2298],[106.91,-6.22973],[106.91001,-6.22966],[106.910381,-6.22966],[106.91077,-6.22964],[106.91259,-6.22934],[106.91329,-6.2292],[106.914591,-6.22891],[106.91676,-6.22838],[106.91951,-6.22775],[106.92161,-6.22766],[106.92307,-6.22764],[106.92315,-6.22718],[106.923201,-6.226795],[106.92326,-6.22616],[106.92324,-6.22352],[106.92324,-6.22353],[106.92325,-6.22238],[106.92318,-6.22239],[106.92325,-6.22238],[106.9233,-6.22149],[106.92337,-6.22072],[106.92342,-6.219819],[106.92346,-6.21939],[106.92349,-6.21917],[106.92357,-6.21826],[106.92353,-6.21809],[106.92352,-6.21793],[106.92363,-6.21699],[106.92374,-6.21579],[106.924082,-6.21583],[106.92668,-6.21618],[106.927414,-6.21623],[106.93283,-6.21689],[106.9348,-6.21716],[106.9356,-6.21732],[106.9379,-6.21754],[106.9382,-6.21755],[106.93848,-6.21749],[106.93867,-6.21741],[106.93888,-6.21727],[106.93911,-6.21702],[106.93927,-6.21676],[106.93938,-6.21635],[106.93946,-6.21542],[106.93944,-6.21507],[106.93956,-6.21385],[106.93964,-6.21251],[106.93967,-6.21239],[106.93975,-6.21232],[106.93982,-6.2123],[106.940399,-6.21228],[106.94182,-6.21233],[106.94514,-6.21239]]]},"properties":{"id":115617713,"onestop_id":"r-qquh9-11p","feed_onestop_id":"f-transjakarta~id","feed_version_sha1":"16100b641663eb798d4cc48eeb3ac04d856f14a4","route_id":"11P","route_color":"717092","route_desc":"Rusun","route_long_name":"Rusun Pondok Bambu - Walikota Jakarta Timur","route_short_name":"11P","route_type":3,"route_url":null,"alerts":[],"route_stops":[{"__typename":"RouteStop","stop":{"__typename":"Stop","id":2012192890,"stop_id":"B00100P","stop_name":"Baladewa Residence","geometry":{"type":"Point","coordinates":[106.91038,-6.229648]}}},{"__typename":"RouteStop","stop":{"__typename":"Stop","id":2012192971,"stop_id":"B00195P","stop_name":"Buaran Plaza","geometry":{"type":"Point","coordinates":[106.9235,-6.217983]}}},{"__typename":"RouteStop","stop":{"__typename":"Stop","id":2012192974,"stop_id":"B00198P","stop_name":"Budhaya Santo Agustinus","geometry":{"type":"Point","coordinates":[106.92346,-6.220866]}}},{"__typename":"RouteStop","stop":{"__typename":"Stop","id":2012192994,"stop_id":"B00227P","stop_name":"Carrefour Buaran","geometry":{"type":"Point","coordinates":[106.9237,-6.218653]}}},{"__typename":"RouteStop","stop":{"__typename":"Stop","id":2012193063,"stop_id":"B00306P","stop_name":"Dinas Kebersihan Duren Sawit","geometry":{"type":"Point","coordinates":[106.92338,-6.219815]}}},{"__typename":"RouteStop","stop":{"__typename":"Stop","id":2012193081,"stop_id":"B00328P","stop_name":"Duren Sawit","geometry":{"type":"Point","coordinates":[106.91006,-6.233341]}}},{"__typename":"RouteStop","stop":{"__typename":"Stop","id":2012193114,"stop_id":"B00368P","stop_name":"Flyover Radin Inten 1","geometry":{"type":"Point","coordinates":[106.92439,-6.216112]}}},{"__typename":"RouteStop","stop":{"__typename":"Stop","id":2012193117,"stop_id":"B00369P","stop_name":"Flyover Radin Inten 2","geometry":{"type":"Point","coordinates":[106.92408,-6.215843]}}},{"__typename":"RouteStop","stop":{"__typename":"Stop","id":2012193336,"stop_id":"B00603P","stop_name":"Gedung Senam","geometry":{"type":"Point","coordinates":[106.92339,-6.224141]}}},{"__typename":"RouteStop","stop":{"__typename":"Stop","id":2012193367,"stop_id":"B00636P","stop_name":"Gereja Santa Anna 1","geometry":{"type":"Point","coordinates":[106.90998,-6.233953]}}},{"__typename":"RouteStop","stop":{"__typename":"Stop","id":2012193368,"stop_id":"B00637P","stop_name":"Gereja Santa Anna 2","geometry":{"type":"Point","coordinates":[106.91014,-6.234003]}}},{"__typename":"RouteStop","stop":{"__typename":"Stop","id":2012193736,"stop_id":"B01096P","stop_name":"Jln. H. Aman","geometry":{"type":"Point","coordinates":[106.92316,-6.226789]}}},{"__typename":"RouteStop","stop":{"__typename":"Stop","id":2012194157,"stop_id":"B01578P","stop_name":"Jln. Serdang","geometry":{"type":"Point","coordinates":[106.91459,-6.228906]}}},{"__typename":"RouteStop","stop":{"__typename":"Stop","id":2012194197,"stop_id":"B01622P","stop_name":"Jln. Swadaya Raya","geometry":{"type":"Point","coordinates":[106.917435,-6.228145]}}},{"__typename":"RouteStop","stop":{"__typename":"Stop","id":2012194248,"stop_id":"B01676P","stop_name":"Jln. Teluk Mandar 1","geometry":{"type":"Point","coordinates":[106.90988,-6.238715]}}},{"__typename":"RouteStop","stop":{"__typename":"Stop","id":2012194249,"stop_id":"B01677P","stop_name":"Jln. Teluk Mandar 2","geometry":{"type":"Point","coordinates":[106.91004,-6.238944]}}},{"__typename":"RouteStop","stop":{"__typename":"Stop","id":2012194351,"stop_id":"B01803P","stop_name":"Kampung Jembatan Ngurah Rai","geometry":{"type":"Point","coordinates":[106.92909,-6.216438]}}},{"__typename":"RouteStop","stop":{"__typename":"Stop","id":2012194797,"stop_id":"B02307P","stop_name":"Masjid Jami Al Barkah 1","geometry":{"type":"Point","coordinates":[106.91212,-6.229411]}}},{"__typename":"RouteStop","stop":{"__typename":"Stop","id":2012194798,"stop_id":"B02308P","stop_name":"Masjid Jami Al Barkah 2","geometry":{"type":"Point","coordinates":[106.91228,-6.22955]}}},{"__typename":"RouteStop","stop":{"__typename":"Stop","id":2012194840,"stop_id":"B02351P","stop_name":"Masjid Jami Nurul Ain 1","geometry":{"type":"Point","coordinates":[106.91976,-6.227717]}}},{"__typename":"RouteStop","stop":{"__typename":"Stop","id":2012194841,"stop_id":"B02352P","stop_name":"Masjid Jami Nurul Ain 2","geometry":{"type":"Point","coordinates":[106.91942,-6.227874]}}},{"__typename":"RouteStop","stop":{"__typename":"Stop","id":2012195236,"stop_id":"B02818P","stop_name":"Perumnas Klender 2","geometry":{"type":"Point","coordinates":[106.9308,-6.216652]}}},{"__typename":"RouteStop","stop":{"__typename":"Stop","id":2012195492,"stop_id":"B03135P","stop_name":"RS Duren Sawit 2","geometry":{"type":"Point","coordinates":[106.91019,-6.232262]}}},{"__typename":"RouteStop","stop":{"__typename":"Stop","id":2012195610,"stop_id":"B03280P","stop_name":"Rusun Klender","geometry":{"type":"Point","coordinates":[106.92868,-6.216567]}}},{"__typename":"RouteStop","stop":{"__typename":"Stop","id":2012195617,"stop_id":"B03289P","stop_name":"Rusun Pondok Bambu","geometry":{"type":"Point","coordinates":[106.91085,-6.241583]}}},{"__typename":"RouteStop","stop":{"__typename":"Stop","id":2012196650,"stop_id":"B04476P","stop_name":"Sbr. SMPN 195","geometry":{"type":"Point","coordinates":[106.90988,-6.230919]}}},{"__typename":"RouteStop","stop":{"__typename":"Stop","id":2012196686,"stop_id":"B04518P","stop_name":"Sbr. Swadaya Raya","geometry":{"type":"Point","coordinates":[106.91633,-6.228578]}}},{"__typename":"RouteStop","stop":{"__typename":"Stop","id":2012197381,"stop_id":"B05318P","stop_name":"SMKN 48","geometry":{"type":"Point","coordinates":[106.92361,-6.219401]}}},{"__typename":"RouteStop","stop":{"__typename":"Stop","id":2012197597,"stop_id":"B05581P","stop_name":"Taman Buaran Indah","geometry":{"type":"Point","coordinates":[106.92356,-6.216979]}}},{"__typename":"RouteStop","stop":{"__typename":"Stop","id":2012197663,"stop_id":"B05660P","stop_name":"Taman Ut Aheme","geometry":{"type":"Point","coordinates":[106.92256,-6.227704]}}},{"__typename":"RouteStop","stop":{"__typename":"Stop","id":2012197851,"stop_id":"B05885P","stop_name":"Wisma Atlet Radin Inten","geometry":{"type":"Point","coordinates":[106.92322,-6.223513]}}},{"__typename":"RouteStop","stop":{"__typename":"Stop","id":2012198763,"stop_id":"B06652P","stop_name":"Penggilingan 1","geometry":{"type":"Point","coordinates":[106.93945,-6.214459]}}},{"__typename":"RouteStop","stop":{"__typename":"Stop","id":2012198764,"stop_id":"B06653P","stop_name":"Penggilingan 2","geometry":{"type":"Point","coordinates":[106.93973,-6.214423]}}},{"__typename":"RouteStop","stop":{"__typename":"Stop","id":2012198765,"stop_id":"B06654P","stop_name":"Walikota Jakarta Timur 1","geometry":{"type":"Point","coordinates":[106.94515,-6.212327]}}},{"__typename":"RouteStop","stop":{"__typename":"Stop","id":2012198766,"stop_id":"B06655P","stop_name":"Walikota Jakarta Timur 2","geometry":{"type":"Point","coordinates":[106.94472,-6.212722]}}},{"__typename":"RouteStop","stop":{"__typename":"Stop","id":2012198771,"stop_id":"B06660P","stop_name":"Kasi Dikdas 1","geometry":{"type":"Point","coordinates":[106.92318,-6.222363]}}},{"__typename":"RouteStop","stop":{"__typename":"Stop","id":2012198772,"stop_id":"B06661P","stop_name":"Kasi Dikdas 2","geometry":{"type":"Point","coordinates":[106.92336,-6.222079]}}},{"__typename":"RouteStop","stop":{"__typename":"Stop","id":2012198773,"stop_id":"B06665P","stop_name":"Pengadilan Negeri Jaktim 2","geometry":{"type":"Point","coordinates":[106.94082,-6.212604]}}},{"__typename":"RouteStop","stop":{"__typename":"Stop","id":2012198774,"stop_id":"B06666P","stop_name":"Kodim 0505 1","geometry":{"type":"Point","coordinates":[106.94722,-6.211958]}}},{"__typename":"RouteStop","stop":{"__typename":"Stop","id":2012198775,"stop_id":"B06667P","stop_name":"Kodim 0505 2","geometry":{"type":"Point","coordinates":[106.94717,-6.212305]}}},{"__typename":"RouteStop","stop":{"__typename":"Stop","id":2012198974,"stop_id":"B04648P","stop_name":"Sekolah PGRI Penggilingan","geometry":{"type":"Point","coordinates":[106.933775,-6.216995]}}},{"__typename":"RouteStop","stop":{"__typename":"Stop","id":2012199598,"stop_id":"B01255P","stop_name":"Jln. Kel. Raya","geometry":{"type":"Point","coordinates":[106.91435,-6.229105]}}},{"__typename":"RouteStop","stop":{"__typename":"Stop","id":2012200081,"stop_id":"B07357P","stop_name":"Perumnas Klender 1","geometry":{"type":"Point","coordinates":[106.930538,-6.216779]}}},{"__typename":"RouteStop","stop":{"__typename":"Stop","id":2012200190,"stop_id":"B07455P","stop_name":"Jln. Dr. Sumarno","geometry":{"type":"Point","coordinates":[106.943325,-6.21232]}}},{"__typename":"RouteStop","stop":{"__typename":"Stop","id":2012200300,"stop_id":"B06662P","stop_name":"Jln. I Gusti Ngurah Rai 1","geometry":{"type":"Point","coordinates":[106.92742,-6.216178]}}},{"__typename":"RouteStop","stop":{"__typename":"Stop","id":2012200301,"stop_id":"B06663P","stop_name":"Jln. I Gusti Ngurah Rai 2","geometry":{"type":"Point","coordinates":[106.92745,-6.216375]}}},{"__typename":"RouteStop","stop":{"__typename":"Stop","id":2012200342,"stop_id":"B07574P","stop_name":"Sbr. Sekolah PGRI Penggilingan","geometry":{"type":"Point","coordinates":[106.934008,-6.217208]}}},{"__typename":"RouteStop","stop":{"__typename":"Stop","id":2012200975,"stop_id":"B06664P","stop_name":"Pengadilan Negeri Jaktim 1","geometry":{"type":"Point","coordinates":[106.940401,-6.212253]}}}],"agency":{"__typename":"Agency","id":2925632,"agency_id":"Tije","agency_name":"Transjakarta","onestop_id":"o-qqgu-pttransportasijakarta"},"headways":[{"__typename":"RouteHeadway","dow_category":1,"service_date":"2004-01-15","direction_id":0,"headway_secs":null,"departures":["05:08:05"]},{"__typename":"RouteHeadway","dow_category":6,"service_date":"2004-01-17","direction_id":0,"headway_secs":null,"departures":["05:08:05"]},{"__typename":"RouteHeadway","dow_category":7,"service_date":"2004-01-18","direction_id":0,"headway_secs":null,"departures":["05:08:05"]},{"__typename":"RouteHeadway","dow_category":1,"service_date":"2004-01-15","direction_id":1,"headway_secs":null,"departures":["05:23:45"]},{"__typename":"RouteHeadway","dow_category":6,"service_date":"2004-01-17","direction_id":1,"headway_secs":null,"departures":["05:23:45"]},{"__typename":"RouteHeadway","dow_category":7,"service_date":"2004-01-18","direction_id":1,"headway_secs":null,"departures":["05:23:45"]}],"feed_version":{"__typename":"FeedVersion","id":634110,"fetched_at":"2026-01-31T01:31:25.328392Z"}},"id":115617713}]}